{"type":"Topology","objects":{"cities":{"type":"GeometryCollection","geometries":[{"type":"Point","properties":{"name":"Cadiz","state":"Andalucía"},"coordinates":[5303,5538]},{"type":"Point","properties":{"name":"Granada","state":"Andalucía"},"coordinates":[6699,5951]},{"type":"Point","properties":{"name":"Murcia","state":"Región de Murcia"},"coordinates":[7997,6487]},{"type":"Point","properties":{"name":"Ceuta","state":"Ceuta"},"coordinates":[5788,5114]},{"type":"Point","properties":{"name":"La Coruña","state":"Galicia"},"coordinates":[4142,9999]},{"type":"Point","properties":{"name":"Ourense","state":"Galicia"},"coordinates":[4432,9342]},{"type":"Point","properties":{"name":"Pamplona","state":"Comunidad Foral de Navarra"},"coordinates":[7722,9664]},{"type":"Point","properties":{"name":"Valladolid","state":"Castilla y León"},"coordinates":[6083,8896]},{"type":"Point","properties":{"name":"Melilla","state":"Melilla"},"coordinates":[7035,4727]},{"type":"Point","properties":{"name":"Palma","state":"Islas Baleares"},"coordinates":[9999,7533]},{"type":"Point","properties":{"name":"Zaragoza","state":"Aragnn"},"coordinates":[8124,8896]},{"type":"Point","properties":{"name":"Santa Cruz de Tenerife","state":"Santa Cruz de Tenerife"},"coordinates":[0,243]},{"type":"Point","properties":{"name":"Cordoba","state":"Andalucía"},"coordinates":[6072,6421]},{"type":"Point","properties":{"name":"Vigo","state":"Galicia"},"coordinates":[3978,9270]},{"type":"Point","properties":{"name":"Bilbao","state":"País Vasco"},"coordinates":[7045,9946]},{"type":"Point","properties":{"name":"Las Palmas","state":"Las Palmas"},"coordinates":[434,0]},{"type":"Point","properties":{"name":"Seville","state":"Andalucía"},"coordinates":[5432,6109]},{"type":"Point","properties":{"name":"Valencia","state":"Comunidad Valenciana"},"coordinates":[8382,7476]},{"type":"Point","properties":{"name":"Barcelona","state":"Cataluma"},"coordinates":[9749,8722]},{"type":"Point","properties":{"name":"Madrid","state":"Madrid"},"coordinates":[6646,8077]}]}},"arcs":[],"transform":{"scale":[0.0018906137236520727,0.0015231523762788666],"translate":[-16.250000652521294,28.09997601217316]}}